[
  {
    "id": "naau_cafe",
    "name": "Naau Cafe",
    "address": "276 Russell St, Melbourne VIC",
    "lat": -37.8099238,
    "lng": 144.9670677,
    "rating": "7.5/10",
    "notes": "Had the rasberry matcha. wasnt anything outstanding, but matcha itself was decent",
    "suburb": "Melbourne"
  },
  {
    "id": "osoi",
    "name": "Osoi",
    "address": "219 Albion St, Brunswick VIC",
    "lat": -37.7604,
    "lng": 144.961,
    "rating": "8/10",
    "notes": "Aesthetic is nice, matcha is nice and they have some different drinks available. Banananoffee affagato is to die for",
    "suburb": "Brunswick",
    "bestOrder": "banana affagato",
    "link": ""
  },
  {
    "id": "matcha_kobo",
    "name": "MATCHA KOBO",
    "address": "258 Lonsdale St, Melbourne VIC",
    "lat": -37.8115,
    "lng": 144.9644,
    "rating": "",
    "notes": "",
    "suburb": "Melbourne",
    "bestOrder": "",
    "link": ""
  },
  {
    "id": "hikari",
    "name": "Hikari",
    "address": "317 Swanston St, Melbourne VIC",
    "lat": -37.8108,
    "lng": 144.9641,
    "rating": "",
    "notes": "",
    "suburb": "Melbourne",
    "bestOrder": "",
    "link": ""
  },
  {
    "id": "toris_exhibition",
    "name": "Tori's Exhibition",
    "address": "124 Exhibition St, Melbourne VIC",
    "lat": -37.8127,
    "lng": 144.9711,
    "rating": "",
    "notes": "",
    "suburb": "Melbourne",
    "bestOrder": "",
    "link": ""
  },
  {
    "id": "balibola",
    "name": "BALIBOLA",
    "address": "259 Collins St, Melbourne VIC",
    "lat": -37.8162,
    "lng": 144.9654,
    "rating": "",
    "notes": "",
    "suburb": "Melbourne",
    "bestOrder": "",
    "link": ""
  },
  {
    "id": "matcha_kona",
    "name": "Matcha Kona by Kaki Lima",
    "address": "414 Swanston St, Melbourne VIC",
    "lat": -37.8076,
    "lng": 144.9632,
    "rating": "",
    "notes": "",
    "suburb": "Melbourne",
    "bestOrder": "",
    "link": ""
  },
  {
    "id": "donatellos",
    "name": "Donatellos",
    "address": "Unit 2/2B Mitchell St, Brunswick VIC 3056",
    "lat": -37.7583,
    "lng": 144.9682,
    "rating": "",
    "notes": "",
    "suburb": "Brunswick",
    "bestOrder": "",
    "link": ""
  },
  {
    "id": "good_measure",
    "name": "Good Measure",
    "address": "193 Lygon St, Carlton VIC 3053",
    "lat": -37.8019,
    "lng": 144.9653,
    "rating": "",
    "notes": "",
    "suburb": "Carlton",
    "bestOrder": "",
    "link": ""
  },
  {
    "id": "k5_kona",
    "name": "K5 Kona",
    "address": "RMIT Building 14, Melbourne VIC",
    "lat": -37.807,
    "lng": 144.9635,
    "rating": "",
    "notes": "",
    "suburb": "Melbourne",
    "bestOrder": "",
    "link": ""
  },
  {
    "id": "bola_bakes",
    "name": "Bola Bakes",
    "address": "22A Fraser St, Airport West VIC 3042",
    "lat": -37.7204,
    "lng": 144.9603,
    "rating": "",
    "notes": "",
    "suburb": "Airport West",
    "bestOrder": "",
    "link": ""
  },
  {
    "id": "matcha_mate",
    "name": "Matcha Mate",
    "address": "119 Hardware St, Melbourne VIC 3000",
    "lat": -37.812,
    "lng": 144.9604,
    "rating": "",
    "notes": "",
    "suburb": "Melbourne",
    "bestOrder": "",
    "link": ""
  },
  {
    "id": "bal_bakes",
    "name": "Bal Bakes",
    "address": "Unit 2/281 Marathon Blvd, Craigieburn VIC 3064",
    "lat": -37.594,
    "lng": 144.9412,
    "rating": "",
    "notes": "",
    "suburb": "Craigieburn",
    "bestOrder": "",
    "link": ""
  },
  {
    "id": "haikuu",
    "name": "Haikuu",
    "address": "1161 Toorak Rd, Camberwell VIC 3124",
    "lat": -37.8275,
    "lng": 145.0573,
    "rating": "",
    "notes": "",
    "suburb": "Camberwell",
    "bestOrder": "",
    "link": ""
  },
  {
    "id": "be_merry",
    "name": "Be Merry",
    "address": "32 Jackson Ct, Doncaster East VIC 3109",
    "lat": -37.787,
    "lng": 145.1495,
    "rating": "",
    "notes": "",
    "suburb": "Doncaster East",
    "bestOrder": "",
    "link": ""
  },
  {
    "id": "nanas_green_tea",
    "name": "Nana's Green Tea",
    "address": "487 Swanston St, Melbourne VIC 3000",
    "lat": -37.8109,
    "lng": 144.965,
    "rating": "",
    "notes": "",
    "suburb": "Melbourne",
    "bestOrder": "",
    "link": ""
  },
  {
    "id": "bloomwood",
    "name": "Bloomwood",
    "address": "121 Exhibition St, Melbourne VIC 3000",
    "lat": -37.8125,
    "lng": 144.9712,
    "rating": "",
    "notes": "",
    "suburb": "Melbourne",
    "bestOrder": "",
    "link": ""
  },
  {
    "id": "humble_rays",
    "name": "Humble Rays",
    "address": "71 Bouverie St, Carlton VIC 3053",
    "lat": -37.804,
    "lng": 144.9608,
    "rating": "",
    "notes": "",
    "suburb": "Carlton",
    "bestOrder": "",
    "link": ""
  },
  {
    "id": "suupaa",
    "name": "Suupaa",
    "address": "65 Dover St, Cremorne VIC 3121",
    "lat": -37.8295,
    "lng": 144.991,
    "rating": "",
    "notes": "",
    "suburb": "Cremorne",
    "bestOrder": "",
    "link": ""
  },
  {
    "id": "molly_tea",
    "name": "Molly Tea",
    "address": "222 Swanston St, Melbourne VIC 3000",
    "lat": -37.811,
    "lng": 144.9653,
    "rating": "",
    "notes": "",
    "suburb": "Melbourne",
    "bestOrder": "",
    "link": ""
  },
  {
    "id": "heytea",
    "name": "Heytea",
    "address": "Emporium Melbourne, Lonsdale St, Melbourne VIC 3000",
    "lat": -37.8108,
    "lng": 144.9645,
    "rating": "",
    "notes": "",
    "suburb": "Melbourne",
    "bestOrder": "",
    "link": ""
  },
  {
    "id": "grb",
    "name": "GRB",
    "address": "Sydney Rd & Barry Rd, Campbellfield VIC 3061",
    "lat": -37.6683,
    "lng": 144.9515,
    "rating": "",
    "notes": "",
    "suburb": "Campbellfield",
    "bestOrder": "",
    "link": ""
  },
  {
    "id": "axl_coffee",
    "name": "Axl Coffee",
    "address": "447 Collins St, Melbourne VIC 3000",
    "lat": -37.8185,
    "lng": 144.9572,
    "rating": "",
    "notes": "",
    "suburb": "Melbourne",
    "bestOrder": "",
    "link": ""
  },
  {
    "id": "peoples_coffee",
    "name": "People's Coffee",
    "address": "440 Collins St, Melbourne VIC 3000",
    "lat": -37.8177,
    "lng": 144.9568,
    "rating": "",
    "notes": "",
    "suburb": "Melbourne",
    "bestOrder": "",
    "link": ""
  },
  {
    "id": "flovie_florist_cafe",
    "name": "Flovie Florist Café",
    "address": "261-263 Queensberry St, Carlton VIC 3053",
    "lat": -37.8045,
    "lng": 144.9601,
    "rating": "",
    "notes": "",
    "suburb": "Carlton",
    "bestOrder": "",
    "link": ""
  }
]
