[
  {
    "id": "naau_cafe",
    "name": "Naau Cafe",
    "address": "276 Russell St, Melbourne VIC",
    "lat": -37.8099972,
    "lng": 144.9670205,
    "rating": "4.25",
    "notes": "Had the rasberry matcha. wasnt anything outstanding, but matcha itself was decent. I had the pistachio cream however, an that was good, and they have surpisngly improved?",
    "suburb": "Melbourne"
  },
  {
    "id": "osoi",
    "name": "Osoi",
    "address": "219 Albion St, Brunswick VIC",
    "lat": -37.7604866,
    "lng": 144.9610483,
    "rating": "4",
    "notes": "Aesthetic is nice, matcha is nice and they have some different drinks available. Banananoffee affagato is to die for",
    "suburb": "Brunswick",
    "bestOrder": "banana affagato"
  },
  {
    "id": "Torori_Warabimochi_Australia",
    "name": "Torori Warabimochi Australia",
    "address": "9 Centreway Arcade, Melbourne VIC 3000, Australia",
    "lat": -37.81637,
    "lng": 144.965475,
    "rating": "5",
    "notes": "so many flavours and so many choices and the matcha is good",
    "suburb": "Melbourne",
    "bestOrder": "Earl grey matcha"
  },
  {
    "id": "donatellos",
    "name": "Donatellos",
    "address": "Unit 2/2B Mitchell St, Brunswick VIC 3056",
    "lat": -37.7595187,
    "lng": 144.9721056,
    "rating": "4.5",
    "notes": "Perfect for a sunday morning. On the sweeter sde. but they improved the recipes sm, and the matcha itself is good",
    "suburb": "Brunswick",
    "bestOrder": "Hibiscus Matcha"
  },
  {
    "id": "good_measure",
    "name": "Good Measure",
    "address": "193 Lygon St, Carlton VIC 3053",
    "lat": -37.8010855,
    "lng": 144.9665141,
    "rating": "3",
    "notes": "They only have matcha with soy milk so it made it really bitter but in an unnpleasant way. but everyone likes it. So I guess, i need to retry it.",
    "suburb": "Carlton"
  },
  {
    "id": "bola_bakes",
    "name": "Bola Bakes",
    "address": "22A Fraser St, Airport West VIC 3042",
    "lat": -37.72426986694336,
    "lng": 144.88636779785156,
    "rating": "2",
    "notes": "Matcha is weak, but their drinks are good.",
    "suburb": "Airport West",
    "bestOrder": "the food itself lol"
  },
  {
    "id": "nimbo",
    "name": "nimbo",
    "address": "119 Hardware St, Melbourne VIC 3000",
    "lat": -37.8121898,
    "lng": 144.9605641,
    "rating": "3",
    "notes": "Not bad, the cookies were really good too, but nothing standed out",
    "suburb": "Melbourne"
  },
  {
    "id": "bal_bakes",
    "name": "Bal Bakes",
    "address": "Unit 2/281 Marathon Blvd, Craigieburn VIC 3064",
    "lat": -37.584659576416016,
    "lng": 144.90509033203125,
    "rating": "0.5",
    "notes": "milky",
    "suburb": "Craigieburn"
  },
  {
    "id": "haikuu",
    "name": "Haikuu",
    "address": "1161 Toorak Rd, Camberwell VIC 3124",
    "lat": -37.8481512,
    "lng": 145.0778033,
    "rating": "4",
    "notes": "Authentic, nicely done, but expensive for the small plastic cups is crazy",
    "suburb": "Camberwell"
  },
  {
    "id": "be_merry",
    "name": "Be Merry",
    "address": "32 Jackson Ct, Doncaster East VIC 3109",
    "lat": -37.788959,
    "lng": 145.150145,
    "rating": "3.5",
    "notes": "sweet, nice company to the 10/10 of crepes they have though. Not bad matcha considering few places in Doncaster though",
    "suburb": "Doncaster East"
  },

  {
    "id": "bloomwood",
    "name": "Bloomwood",
    "address": "121 Exhibition St, Melbourne VIC 3000",
    "lat": -37.8125,
    "lng": 144.9712,
    "rating": "4.3",
    "notes": "Surprisingly good, the matcha flavour was there but the banana matcha was too sweet. ",
    "suburb": "Melbourne"
  },
  {
    "id": "humble_rays",
    "name": "Humble Rays",
    "address": "71 Bouverie St, Carlton VIC 3053",
    "lat": -37.81388473510742,
    "lng": 144.9713592529297,
    "rating": "4.2",
    "notes": "Sweet, but nice to have while studying",
    "suburb": "Carlton",
    "bestOrder": "pistachio Matcha"
  },
  {
    "id": "suupaa",
    "name": "Suupaa",
    "address": "65 Dover St, Cremorne VIC 3121",
    "lat": -37.8287353515625,
    "lng": 144.99163818359375,
    "rating": "4",
    "notes": "Very strong matcha flavour. likr bitter in your mouth, forced to sip matcha, but honestly it was good and nice, dont go here if you want diabetic matcha",
    "suburb": "Cremorne"
  },
  {
    "id": "molly_tea",
    "name": "Molly Tea",
    "address": "222 Swanston St, Melbourne VIC 3000",
    "lat": -37.8126209,
    "lng": 144.9654098,
    "rating": "5",
    "notes": "PERFUME IN A MATCHA BUT IN A GOOOOOOD WAY!!!!!!!!!!!!",
    "suburb": "Melbourne",
    "bestOrder": "Jasmine Matcha latte"
  },
  {
    "id": "heytea",
    "name": "Heytea",
    "address": "Emporium Melbourne, Lonsdale St, Melbourne VIC 3000",
    "lat": -37.8108,
    "lng": 144.9645,
    "rating": "3.2",
    "notes": "Rating is subject to change. Recently got the matcha blue coconut drink, which was good but not enough matcha",
    "suburb": "Melbourne",
    "bestOrder": "supreme matcha latte"
  },
  {
    "id": "grb",
    "name": "GRB",
    "address": "Sydney Rd & Barry Rd, Campbellfield VIC 3061",
    "lat": -37.6683,
    "lng": 144.9515,
    "rating": "0",
    "notes": "got the strawberry matcha. Tasted like strawberry milk? where the matcha at???????",
    "suburb": "Campbellfield"
  },
  {
    "id": "axl_coffee",
    "name": "Axl Coffee",
    "address": "447 Collins St, Melbourne VIC 3000",
    "lat": -37.8177181,
    "lng": 144.9594764,
    "rating": "0",
    "notes": "disgusting. dont even bother. they store the matcha in premade little containers as well, and then just like blitz it i guess with water and there are clumps when you drink it and its sickening",
    "suburb": "Melbourne"
  },
  {
    "id": "peoples_coffee",
    "name": "People's Coffee",
    "address": "440 Collins St, Melbourne VIC 3000",
    "lat": -37.8170972,
    "lng": 144.9598031,
    "rating": "2.5",
    "notes": "milky, and it is premade and it tastes bitter and gross.",
    "suburb": "Melbourne"
  },
  {
    "id": "flovie_florist_cafe",
    "name": "Flovie Florist Café",
    "address": "261-263 Queensberry St, Carlton VIC 3053",
    "lat": -37.8044047,
    "lng": 144.9599301,
    "rating": "2",
    "notes": "mid",
    "suburb": "Carlton"
  },
    {
    "id": "its_bagels",
    "name": "it's bagels",
    "address": "50 Queen Street, Melbourne VIC 3000, Australia",
    "lat": -37.817674 ,
    "lng": 144.96221,
    "rating": "0",
    "notes": "Disgusting, extra points off because it literally looked like a biohazard",
    "suburb": "Melbourne",
    "bestOrder": "bagel itself"
  },
   {
    "id": "cardigan_55",
    "name": "cardigan 55",
    "address": "55 Cardigan Street, Carlton VIC 3053, Australia",
    "lat": -37.805432 ,
    "lng": 144.964279,
    "rating": "4",
    "notes": "oddly sweet but not in a bad way, and like sometimes I do get what people mean when they say matcha is fishy lol. An extra point for how close it is to uni and it makes my life sm eaiser and they have wifi as well!!!!!",
    "suburb": "Carlton",
    "bestOrder": "iced matcha latte, extra matcha!"
  },
  {
    "id": "palette_at_night",
    "name": "Palette. & Palette.atnight",
    "address": "610 Queensberry Street, North Melbourne VIC 3051, Australia",
    "lat": -37.802551 ,
    "lng": 144.9471099,
    "rating": "2.8",
    "notes": "really weak lol. even the food is terribly mid, people only go for the aesthetic, and you cannot change my mind lol",
    "suburb": "North Melbourne",
    "bestOrder": "iced matcha latte, extra matcha"
  },
  {
    "id": "Miyama_melbourne",
    "name": "Miyama Melbourne",
    "address": "Level 2/300 Lonsdale St, Melbourne VIC 3000",
    "lat": -37.810966 ,
    "lng": 144.963595,
    "rating": "3",
    "notes": "Not bad, but the food is even better and very cute. the matcha was not anything outstanding the colouring was a little bright tbh",
    "suburb": "Melbourne",
    "bestOrder": "iced matcha latte"
  },
  {
    "id": "Amiri_cafe",
    "name": "Amiri cafe",
    "address": " Shop R02, 14 Cnr Lonsdale Street, QV, Melbourne VIC 3000",
    "lat": -37.810817 ,
    "lng": 144.965716,
    "rating": "4",
    "notes": "Expensiveeeeeeee. but the matcha itself was good, extra point because they are open late",
    "suburb": "Melbourne",
    "bestOrder": "iced matcha latte"
  },
    {
    "id": "hikari",
    "name": "hikari",
    "address": "317 Swanston St, Melbourne VIC 3000",
    "lat": -37.81040954589844,
    "lng": 144.9641571044922,
    "rating": "3.8",
    "notes": "The colour is slightly lighter then i like, i think maybe get the iced matcha latte, extra strong? the flavour profile is slightly weak, but still good though, bevause too much milk? but it is a nice spot to sit tho.",
    "suburb": "Melbourne",
    "bestOrder": "need to try the blooming one"
  },
   {
    "id": "regulars",
    "name": "REGULARS",
    "address": "GROUND FLOOR/38-40 Little La Trobe St",
    "lat": -37.8093144850911,
    "lng": 144.96232801350143,
    "rating": "4.3",
    "notes": "REALLY GOOD. I had the cold cup and the matcha is handwhisked, and it was pistachio flavour and they had so many different flavours which I am so keen to try. new favourite?",
    "suburb": "Melbourne",
    "bestOrder": "pistamatcha -85 c special"
  },
  {
    "id": "karomi_cafe",
    "name": "Karomi cafe",
    "address": "228 La Trobe St, 9 Baskerville Ln, Melbourne VIC 3000",
    "lat": -37.809619755520366,
    "lng": 144.96245888562973,
    "rating": "3",
    "notes": "can make better matcha in my house lol. Very basic, weak profile in my humble opinion.",
    "suburb": "Melbourne",
    "bestOrder": "tiramisu drink(coffee, milk based)"
  }
]
