[
  {
    "id": "naau_cafe",
    "name": "Naau Cafe",
    "address": "276 Russell St, Melbourne VIC",
    "lat": -37.8099972,
    "lng": 144.9670205,
    "rating": "3.75",
    "notes": "Had the rasberry matcha. wasnt anything outstanding, but matcha itself was decent",
    "suburb": "Melbourne"
  },
  {
    "id": "osoi",
    "name": "Osoi",
    "address": "219 Albion St, Brunswick VIC",
    "lat": -37.7604866,
    "lng": 144.9610483,
    "rating": "4",
    "notes": "Aesthetic is nice, matcha is nice and they have some different drinks available. Banananoffee affagato is to die for",
    "suburb": "Brunswick",
    "bestOrder": "banana affagato"
  },
  {
    "id": "toris_exhibition",
    "name": "Tori's Exhibition",
    "address": "124 Exhibition St, Melbourne VIC",
    "lat": -37.8127,
    "lng": 144.9711,
    "rating": "5",
    "notes": "so many flavours and so many choices and the matcha is good",
    "suburb": "Melbourne",
    "bestOrder": "Earl grey matcha"
  },
  {
    "id": "donatellos",
    "name": "Donatellos",
    "address": "Unit 2/2B Mitchell St, Brunswick VIC 3056",
    "lat": -37.7595187,
    "lng": 144.9721056,
    "rating": "4.5",
    "notes": "Perfect for a sunday morning. On the sweeter sde. but they improved the recipes sm, and the matcha itself is good",
    "suburb": "Brunswick",
    "bestOrder": "Hibiscus Matcha"
  },
  {
    "id": "good_measure",
    "name": "Good Measure",
    "address": "193 Lygon St, Carlton VIC 3053",
    "lat": -37.8010855,
    "lng": 144.9665141,
    "rating": "3",
    "notes": "They only have matcha with oat molk so it made it really bitter but in an unnpleasant way. but everyone likes it. So I guess, i need to retry it.",
    "suburb": "Carlton"
  },
  {
    "id": "bola_bakes",
    "name": "Bola Bakes",
    "address": "22A Fraser St, Airport West VIC 3042",
    "lat": -37.72426986694336,
    "lng": 144.88636779785156,
    "rating": "3",
    "notes": "Matcha is weak, but their drinks are good.",
    "suburb": "Airport West",
    "bestOrder": "the food itself lol"
  },
  {
    "id": "matcha_mate",
    "name": "Matcha Mate",
    "address": "119 Hardware St, Melbourne VIC 3000",
    "lat": -37.8121898,
    "lng": 144.9605641,
    "rating": "3",
    "notes": "Not bad, the cookies were really good too, but nothing standed out",
    "suburb": "Melbourne"
  },
  {
    "id": "bal_bakes",
    "name": "Bal Bakes",
    "address": "Unit 2/281 Marathon Blvd, Craigieburn VIC 3064",
    "lat": -37.584659576416016,
    "lng": 144.90509033203125,
    "rating": "0",
    "notes": "milky",
    "suburb": "Craigieburn"
  },
  {
    "id": "haikuu",
    "name": "Haikuu",
    "address": "1161 Toorak Rd, Camberwell VIC 3124",
    "lat": -37.8481512,
    "lng": 145.0778033,
    "rating": "4",
    "notes": "Authentic, nicely done, but expensive for the small plastic cups is crazy",
    "suburb": "Camberwell"
  },
  {
    "id": "be_merry",
    "name": "Be Merry",
    "address": "32 Jackson Ct, Doncaster East VIC 3109",
    "lat": -37.788959,
    "lng": 145.150145,
    "rating": "3.5",
    "notes": "sweet, nice company to the 10/10 of crepes they have though. Not bad matcha considering few places in Doncaster though",
    "suburb": "Doncaster East"
  },

  {
    "id": "bloomwood",
    "name": "Bloomwood",
    "address": "121 Exhibition St, Melbourne VIC 3000",
    "lat": -37.8125,
    "lng": 144.9712,
    "rating": "4.3",
    "notes": "Surprisingly good, the matcha flavour was there but the banana matcha was too sweet. ",
    "suburb": "Melbourne"
  },
  {
    "id": "humble_rays",
    "name": "Humble Rays",
    "address": "71 Bouverie St, Carlton VIC 3053",
    "lat": -37.81388473510742,
    "lng": 144.9713592529297,
    "rating": "4.2",
    "notes": "Sweet, but nice to have while studying",
    "suburb": "Carlton",
    "bestOrder": "Banana Matcha"
  },
  {
    "id": "suupaa",
    "name": "Suupaa",
    "address": "65 Dover St, Cremorne VIC 3121",
    "lat": -37.8287353515625,
    "lng": 144.99163818359375,
    "rating": "4",
    "notes": "Very srong matcha flavour. likr bitter in your mouth, forrced to sip matcha, but honestly it was good and nice, dont go here if you want diabetic matcha",
    "suburb": "Cremorne"
  },
  {
    "id": "molly_tea",
    "name": "Molly Tea",
    "address": "222 Swanston St, Melbourne VIC 3000",
    "lat": -37.8126209,
    "lng": 144.9654098,
    "rating": "5",
    "notes": "PERFUME IN A MATCHA BUT IN A GOOOOOOD WAY!!!!!!!!!!!!",
    "suburb": "Melbourne",
    "bestOrder": "Jasmine Matcha latte"
  },
  {
    "id": "heytea",
    "name": "Heytea",
    "address": "Emporium Melbourne, Lonsdale St, Melbourne VIC 3000",
    "lat": -37.8108,
    "lng": 144.9645,
    "rating": "3.2",
    "notes": "Rating is subject to change. Recently got the matcha blue coconut drink, which was good but not enough matcha",
    "suburb": "Melbourne",
    "bestOrder": "supreme matcha latte"
  },
  {
    "id": "grb",
    "name": "GRB",
    "address": "Sydney Rd & Barry Rd, Campbellfield VIC 3061",
    "lat": -37.6683,
    "lng": 144.9515,
    "rating": "0",
    "notes": "got the strawberry matcha. Tasted like strawberry milk? where the matcha at???????",
    "suburb": "Campbellfield"
  },
  {
    "id": "axl_coffee",
    "name": "Axl Coffee",
    "address": "447 Collins St, Melbourne VIC 3000",
    "lat": -37.8177181,
    "lng": 144.9594764,
    "rating": "0",
    "notes": "disgusting. dont even bother. they store the matcha in premade little containers as well, and then just like blitz it i guess with water and there are clumps when you drink it and its sickening",
    "suburb": "Melbourne"
  },
  {
    "id": "peoples_coffee",
    "name": "People's Coffee",
    "address": "440 Collins St, Melbourne VIC 3000",
    "lat": -37.8170972,
    "lng": 144.9598031,
    "rating": "2.5",
    "notes": "milky, and it is premade and it tastes bitter and gross.",
    "suburb": "Melbourne"
  },
  {
    "id": "flovie_florist_cafe",
    "name": "Flovie Florist Café",
    "address": "261-263 Queensberry St, Carlton VIC 3053",
    "lat": -37.8044047,
    "lng": 144.9599301,
    "rating": "2",
    "notes": "mid",
    "suburb": "Carlton"
  }
]
